{"type": "FeatureCollection", "version": "draft", "features": [{"type": "Feature", "geometry": {"type": "Point", "coordinates": [3.043936, 50.622772]}, "properties": {"label": "1 Rue Davy 59000 Lille", "score": 1, "housenumber": "1", "id": "59350_2146_00001", "name": "1 Rue Davy", "postcode": "59000", "citycode": "59350", "oldcitycode": "59350", "x": 703114.37, "y": 7058419.72, "city": "Lille", "oldcity": "Lille", "context": "59, Nord, Hauts-de-France", "type": "housenumber", "importance": 0.73376, "street": "Rue Davy", "distance": 0}}, {"type": "Feature", "geometry": {"type": "Point", "coordinates": [3.044173, 50.622838]}, "properties": {"label": "94 Boulevard Montebello 59000 Lille", "score": 0.9999998668128841, "housenumber": "94", "id": "59350_6210_00094", "name": "94 Boulevard Montebello", "postcode": "59000", "citycode": "59350", "oldcitycode": "59350", "x": 703131.16, "y": 7058427.08, "city": "Lille", "oldcity": "Lille", "context": "59, Nord, Hauts-de-France", "type": "housenumber", "importance": 0.81114, "street": "Boulevard Montebello", "distance": 18}}, {"type": "Feature", "geometry": {"type": "Point", "coordinates": [3.044168, 50.622497]}, "properties": {"label": "4 Rue Newton 59000 Lille", "score": 0.9999995194399613, "housenumber": "4", "id": "59350_6383_00004", "name": "4 Rue Newton", "postcode": "59000", "citycode": "59350", "oldcitycode": "59350", "x": 703130.83, "y": 7058389.09, "city": "Lille", "oldcity": "Lille", "context": "59, Nord, Hauts-de-France", "type": "housenumber", "importance": 0.75291, "street": "Rue Newton", "distance": 34}}, {"type": "Feature", "geometry": {"type": "Point", "coordinates": [3.043495, 50.623088]}, "properties": {"label": "1 Rue Duhem 59000 Lille", "score": 0.9999991201109515, "housenumber": "1", "id": "59350_2857_00001", "name": "1 Rue Duhem", "postcode": "59000", "citycode": "59350", "oldcitycode": "59350", "x": 703083.09, "y": 7058454.91, "city": "Lille", "oldcity": "Lille", "context": "59, Nord, Hauts-de-France", "type": "housenumber", "importance": 0.76126, "street": "Rue Duhem", "distance": 46}}, {"type": "Feature", "geometry": {"type": "Point", "coordinates": [3.044881, 50.622734]}, "properties": {"label": "75 Rue d'Arcole 59000 Lille", "score": 0.9999982174260572, "housenumber": "75", "id": "59350_0349_00075", "name": "75 Rue d'Arcole", "postcode": "59000", "citycode": "59350", "oldcitycode": "59350", "x": 703181.36, "y": 7058415.52, "city": "Lille", "oldcity": "Lille", "context": "59, Nord, Hauts-de-France", "type": "housenumber", "importance": 0.7754, "street": "Rue d'Arcole", "distance": 66}}, {"type": "Feature", "geometry": {"type": "Point", "coordinates": [3.044225, 50.623481]}, "properties": {"label": "51 Rue d'Haubourdin 59000 Lille", "score": 0.999997350955176, "housenumber": "51", "id": "59350_4363_00051", "name": "51 Rue d'Haubourdin", "postcode": "59000", "citycode": "59350", "oldcitycode": "59350", "x": 703134.81, "y": 7058498.73, "city": "Lille", "oldcity": "Lille", "context": "59, Nord, Hauts-de-France", "type": "housenumber", "importance": 0.71825, "street": "Rue d'Haubourdin", "distance": 81}}, {"type": "Feature", "geometry": {"type": "Point", "coordinates": [3.042875, 50.622325]}, "properties": {"label": "14 Rue Volta 59000 Lille", "score": 0.9999967749549504, "housenumber": "14", "id": "59350_9239_00014", "name": "14 Rue Volta", "postcode": "59000", "citycode": "59350", "oldcitycode": "59350", "x": 703039.19, "y": 7058369.87, "city": "Lille", "oldcity": "Lille", "context": "59, Nord, Hauts-de-France", "type": "housenumber", "importance": 0.7266, "street": "Rue Volta", "distance": 89}}, {"type": "Feature", "geometry": {"type": "Point", "coordinates": [3.044203, 50.621946]}, "properties": {"label": "10 Rue de Mexico 59000 Lille", "score": 0.9999964881590957, "housenumber": "10", "id": "59350_6098_00010", "name": "10 Rue de Mexico", "postcode": "59000", "citycode": "59350", "oldcitycode": "59350", "x": 703133.35, "y": 7058327.69, "city": "Lille", "oldcity": "Lille", "context": "59, Nord, Hauts-de-France", "type": "housenumber", "importance": 0.77612, "street": "Rue de Mexico", "distance": 93}}, {"type": "Feature", "geometry": {"type": "Point", "coordinates": [3.044901, 50.623491]}, "properties": {"label": "35 Avenue Albert 59000 Lille", "score": 0.9999955951130596, "housenumber": "35", "id": "59350_0126_00035", "name": "35 Avenue Albert", "postcode": "59000", "citycode": "59350", "oldcitycode": "59350", "x": 703182.73, "y": 7058499.88, "city": "Lille", "oldcity": "Lille", "context": "59, Nord, Hauts-de-France", "type": "housenumber", "importance": 0.71825, "street": "Avenue Albert", "distance": 104}}, {"type": "Feature", "geometry": {"type": "Point", "coordinates": [3.044063, 50.621729]}, "properties": {"label": "15 Rue d'Hondschoote 59000 Lille", "score": 0.9999945944995922, "housenumber": "15", "id": "59350_4523_00015", "name": "15 Rue d'Hondschoote", "postcode": "59000", "citycode": "59350", "oldcitycode": "59350", "x": 703123.44, "y": 7058303.51, "city": "Lille", "oldcity": "Lille", "context": "59, Nord, Hauts-de-France", "type": "housenumber", "importance": 0.70233, "street": "Rue d'Hondschoote", "distance": 116}}], "attribution": "BAN", "licence": "ETALAB-2.0", "center": [3.043936, 50.622772], "limit": 1}